State,District,Latitude,Longitude,Total_world,Total_covid_count,Year_Quarter,col
nagaland,zunheboto district,26.0030617,94.5236166,1750900.6459182375,1700,2018-Q1,1700
andhra-pradesh,ysr district,17.0771387,81.6653938,681481931.0936775,487333,2018-Q1,487333
maharashtra,yavatmal district,20.3908238,78.1324077,120777011.2678308,120864,2018-Q1,120864
puducherry,yanam district,16.7332235,82.2018117763748,9167584.996845195,5948,2018-Q1,5948
haryana,yamunanagar district,22.79314,70.88832711034716,125333909.59597152,102917,2018-Q1,102917
karnataka,yadgir district,16.7670964,77.1403984,77395671.09263033,44863,2018-Q1,44863
telangana,yadadri bhuvanagiri district,16.3637095,78.0647251,154266151.70031402,119620,2018-Q1,119620
nagaland,wokha district,26.079343100000003,94.2591254527048,1942858.0739698592,1642,2018-Q1,1642
tripura,west tripura district,23.916667,91.5,68418341.27939591,70467,2018-Q1,70467
jharkhand,west singhbhum district,23.916667,84.083333,38008802.03968498,34197,2018-Q1,34197
arunachal-pradesh,west siang district,28.4,94.55,4796675.565399804,1887,2018-Q1,1887
meghalaya,west khasi hills district,24.3429852,93.6928709,1647761.3372907462,1079,2018-Q1,1079
assam,west karbi anglong district,25.083333,92.916667,570966.7219731117,1445,2018-Q1,1445
arunachal-pradesh,west kameng district,27.33862695,92.43336623881612,9540632.547015157,5787,2018-Q1,5787
meghalaya,west jaintia hills district,24.3429852,93.6928709,2812937.948004551,3131,2018-Q1,3131
andhra-pradesh,west godavari district,16.9550574,81.4530037,853547668.7532667,577090,2018-Q1,577090
meghalaya,west garo hills district,24.3429852,93.6928709,9199200.848858137,7660,2018-Q1,7660
delhi,west district,28.64817722181,77.09084510018437,966855137.026748,545129,2018-Q1,545129
sikkim,west district,27.315686000131,88.237183386863,7468491.334182342,4845,2018-Q1,4845
kerala,wayanad district,11.2554224,75.78162653483244,42622425.25359704,32702,2018-Q1,32702
maharashtra,washim district,20.1224632,77.1311174,53956265.55059725,60452,2018-Q1,60452
maharashtra,wardha district,20.73775615,78.60316842982326,103196998.8728487,111564,2018-Q1,111564
telangana,warangal urban district,16.5,78.25,421074106.98973614,349165,2018-Q1,349165
telangana,warangal rural district,17.0557615,79.2779955,79204912.70098737,104385,2018-Q1,104385
telangana,wanaparthy district,16.3637095,78.0647251,93331113.3949422,53432,2018-Q1,53432
andhra-pradesh,vizianagaram district,18.110744,83.386585,505783445.78162,420990,2018-Q1,420990
andhra-pradesh,visakhapatnam district,18.110744,83.386585,1749966196.5049942,1256469,2018-Q1,1256469
tamil-nadu,virudhunagar district,9.4926289,77.86316901187504,64399880.89336612,40154,2018-Q1,40154
tamil-nadu,viluppuram district,12.11669665,79.59892355244544,96341148.19973633,59239,2018-Q1,59239
telangana,vikarabad district,16.3637095,78.0647251,97615071.47672468,70973,2018-Q1,70973
karnataka,vijayapura district,16.811059649999997,75.89714732778502,175198952.3264187,140665,2018-Q1,140665
madhya-pradesh,vidisha district,23.5200947,77.8085902,134130249.6296961,152184,2018-Q1,152184
tamil-nadu,vellore district,12.9009299,79.06148441803552,153394007.9380332,104902,2018-Q1,104902
uttar-pradesh,varanasi district,25.1297376,82.6059987,534929627.3585822,573338,2018-Q1,573338
gujarat,valsad district,20.3828686,72.9038814,191337866.4668492,168659,2018-Q1,168659
bihar,vaishali district,25.696274,85.2228359,211794626.3246635,201678,2018-Q1,201678
gujarat,vadodara district,22.3182519,73.30458875965446,604645570.2100984,387998,2018-Q1,387998
uttarakhand,uttarkashi district,30.9654214,78.63368731187963,15898878.29543098,12342,2018-Q1,12342
karnataka,uttara kannada district,14.883333,74.583333,106664202.9083384,84133,2018-Q1,84133
west-bengal,uttar dinajpur district,25.6098202,88.1327333,126658409.5547582,242526,2018-Q1,242526
arunachal-pradesh,upper subansiri district,28.3,94.0,1358367.5018580484,735,2018-Q1,735
arunachal-pradesh,upper siang district,28.6416983,95.0252232,186610.66988095012,126,2018-Q1,126
uttar-pradesh,unnao district,26.5,80.5,74063356.03456748,83600,2018-Q1,83600
tripura,unakoti district,24.304628,92.033346,4349605.99414449,5068,2018-Q1,5068
himachal-pradesh,una district,31.4674349,76.2650802,48375221.95801557,39070,2018-Q1,39070
madhya-pradesh,umaria district,23.5255015,80.8343366,31995694.23723551,31009,2018-Q1,31009
manipur,ukhrul district,25.311073800000003,94.47537752375742,1647288.6651835062,1399,2018-Q1,1399
madhya-pradesh,ujjain district,22.8633236,75.8543994,258084907.5951738,223180,2018-Q1,223180
karnataka,udupi district,13.52617505,74.87325316307695,144516000.63165632,102236,2018-Q1,102236
jammu-&-kashmir,udhampur district,32.911964,75.32658448914768,31451872.268610418,17620,2018-Q1,17620
uttarakhand,udham singh nagar district,28.711241,77.4445372,273540317.8466592,319290,2018-Q1,319290
assam,udalguri district,26.70472375,92.04215071409465,14465756.758661749,18168,2018-Q1,18168
rajasthan,udaipur district,24.453502,73.65234711743422,315736879.7070354,224103,2018-Q1,224103
karnataka,tumakuru district,13.3400771,77.1006208,260985866.6478178,177987,2018-Q1,177987
nagaland,tuensang district,26.25,94.75,2939509.973736079,1861,2018-Q1,1861
rajasthan,tonk district,26.122319750000003,75.66322349035153,127600144.91211952,144453,2018-Q1,144453
tamil-nadu,tiruvannamalai district,12.22713775,79.07012882091152,91216191.6004422,72372,2018-Q1,72372
tamil-nadu,tiruppur district,10.791526650000002,77.53254662905589,423271979.6901945,239740,2018-Q1,239740
tamil-nadu,tirupathur district,12.4533064,78.55290857022919,56805034.73148119,38799,2018-Q1,38799
tamil-nadu,tirunelveli district,8.5495014,77.58051775636523,96759984.01749644,50976,2018-Q1,50976
tamil-nadu,tiruchirappalli district,10.85046075,78.72453299229292,262528157.21513468,149186,2018-Q1,149186
arunachal-pradesh,tirap district,27.5013437,96.5242944,1064265.0002443574,945,2018-Q1,945
assam,tinsukia district,27.5971709,95.566852920138,45886201.028968215,41237,2018-Q1,41237
madhya-pradesh,tikamgarh district,24.7712387,78.835802,47488844.27677544,53683,2018-Q1,53683
kerala,thrissur district,10.4786547,76.27261253399872,200502461.3218803,148871,2018-Q1,148871
manipur,thoubal district,24.84529,94.1449785,8366772.887529282,8288,2018-Q1,8288
tamil-nadu,thoothukkudi district,8.84570345,77.99381783527917,55782894.980059884,37172,2018-Q1,37172
tamil-nadu,thiruvarur district,10.6878621,79.49794371209825,32378308.92221385,20460,2018-Q1,20460
kerala,thiruvananthapuram district,10.6207081,76.1281782,275202215.5887567,172079,2018-Q1,172079
tamil-nadu,thiruvallur district,13.2533992,80.05462674586394,730210413.6566752,413340,2018-Q1,413340
tamil-nadu,theni district,9.86924895,77.42258419359165,54074355.481018536,33275,2018-Q1,33275
tamil-nadu,the nilgiris district,11.4454657,76.69864649371819,55552425.89904122,29334,2018-Q1,29334
gujarat,the dangs district,20.75,73.75,4783138.826001479,5441,2018-Q1,5441
tamil-nadu,thanjavur district,10.65903695,79.20142776213416,145796314.2349676,88574,2018-Q1,88574
maharashtra,thane district,19.19682175,72.9786988514791,1995816824.673496,1243518,2018-Q1,1243518
tamil-nadu,tenkasi district,9.09407535,77.47583689833286,39439630.85720312,24822,2018-Q1,24822
manipur,tengnoupal district,24.3429852,93.6928709,660028.7721459618,882,2018-Q1,882
uttarakhand,tehri garhwal district,30.5,78.666667,41280388.51120189,28306,2018-Q1,28306
arunachal-pradesh,tawang district,27.6741942,91.93620587613825,5055665.022950603,2334,2018-Q1,2334
punjab,tarn taran district,31.32124525,74.84130629340785,43205533.21603615,23026,2018-Q1,23026
gujarat,tapi district,21.1909141,73.55541085745186,30555640.68796905,29217,2018-Q1,29217
manipur,tamenglong district,24.9855683,93.5025164,1709209.2458958817,1007,2018-Q1,1007
telangana,suryapet district,16.5,78.25,149966933.68164492,122502,2018-Q1,122502
chhattisgarh,surguja district,22.94691345,83.1656942260687,77822921.04137452,68251,2018-Q1,68251
gujarat,surendranagar district,22.823085,71.55342628734127,71735564.99080022,80486,2018-Q1,80486
gujarat,surat district,21.4626896,72.9515165,1346833710.5223992,983723,2018-Q1,983723
chhattisgarh,surajpur district,23.209675,82.880353,34242977.1533452,35573,2018-Q1,35573
bihar,supaul district,25.5,86.25,71313091.35844366,85807,2018-Q1,85807
odisha,sundargarh district,22.25,84.5,185365810.08196712,193041,2018-Q1,193041
uttar-pradesh,sultanpur district,26.2627557,82.069966,109203364.8484112,118235,2018-Q1,118235
chhattisgarh,sukma district,18.3853241,81.65120264041536,6509136.045384104,3825,2018-Q1,3825
jammu-&-kashmir,srinagar district,34.1163836,74.93070225429341,62676256.75828372,47285,2018-Q1,47285
andhra-pradesh,srikakulam district,17.233496,81.7225986,587778028.9183557,458921,2018-Q1,458921
punjab,sri muktsar sahib district,30.2831401,74.52299719797392,54146157.15264935,44697,2018-Q1,44697
andhra-pradesh,spsr nellore district,14.71875825,79.65961022770595,676643237.8069417,531612,2018-Q1,531612
meghalaya,south west khasi hills district,24.3429852,93.6928709,489330.8331522482,319,2018-Q1,319
meghalaya,south west garo hills district,24.3429852,93.6928709,1015597.2351604332,798,2018-Q1,798
delhi,south west district,28.60195304371949,77.035530803848,555900155.5283471,318199,2018-Q1,318199
west-bengal,south twenty four parganas district,30.5,78.666667,349206351.134772,421793,2018-Q1,421793
tripura,south tripura district,23.5,91.666667,13785118.334229631,18338,2018-Q1,18338
assam,south salmara mancachar district,27.4881672,95.3623358,9404471.999163514,8415,2018-Q1,8415
goa,south goa district,15.29079185,73.9549078343693,116748450.3578331,65783,2018-Q1,65783
meghalaya,south garo hills district,24.3429852,93.6928709,807410.0407250253,705,2018-Q1,705
delhi,south east delhi district,28.53562293151731,77.26959444749815,929543692.8225484,562694,2018-Q1,562694
sikkim,south district,27.1709126829,88.3668023,597143870.4750924,334361,2018-Q1,334361
delhi,south district,28.53748398786314,77.19792895694593,16098282.74814038,11355,2018-Q1,11355
andaman-&-nicobar-islands,south andaman district,10.7056905,92.48746789633373,12560249.34366581,5688,2018-Q1,5688
assam,sonitpur district,26.70472375,92.04215071409465,73005566.24909952,51976,2018-Q1,51976
haryana,sonipat district,22.79314,70.88832711034716,279804665.7475828,178766,2018-Q1,178766
odisha,sonepur district,20.8431294,83.90634540989736,33907648.68154905,65573,2018-Q1,65573
uttar-pradesh,sonbhadra district,25.5,81.5,145796020.7087569,133602,2018-Q1,133602
maharashtra,solapur district,17.66787665,75.90672723846026,535791949.0374772,451438,2018-Q1,451438
himachal-pradesh,solan district,30.0,76.75,146873607.4169529,118881,2018-Q1,118881
bihar,siwan district,26.166667,84.5,169228975.706601,129094,2018-Q1,129094
assam,sivasagar district,26.0,93.5,17611863.81889959,16898,2018-Q1,16898
tamil-nadu,sivaganga district,9.851231,78.53047154820717,63944318.44032206,34130,2018-Q1,34130
uttar-pradesh,sitapur district,28.3548882,79.4185378,90293233.21165024,150536,2018-Q1,150536
bihar,sitamarhi district,26.666667,85.5,162281680.1364338,145625,2018-Q1,145625
haryana,sirsa district,28.7312325,75.892349866212,164313975.8712107,164867,2018-Q1,164867
rajasthan,sirohi district,24.8114047,72.83002573160249,74517122.4961609,61986,2018-Q1,61986
himachal-pradesh,sirmaur district,30.75,77.5,43579534.40144637,37721,2018-Q1,37721
madhya-pradesh,singrauli district,21.8611181,80.32141872874212,180771690.5850878,146704,2018-Q1,146704
maharashtra,sindhudurg district,16.11617835,73.69000425158009,44348287.06745251,37285,2018-Q1,37285
jharkhand,simdega district,24.26618475,87.25313851905128,9328083.907140622,6739,2018-Q1,6739
rajasthan,sikar district,27.66241555,75.02799709983499,354268688.0814287,321709,2018-Q1,321709
madhya-pradesh,sidhi district,22.7018563,75.86663524861918,79354632.01562992,61516,2018-Q1,61516
telangana,siddipet district,18.03098145,78.8783964556235,197965017.999628,144429,2018-Q1,144429
uttar-pradesh,siddharthnagar district,26.1561764,81.80450839427581,95934878.04041216,76809,2018-Q1,76809
arunachal-pradesh,siang district,28.477492,94.81655728795752,339471.80434222345,252,2018-Q1,252
uttar-pradesh,shravasti district,25.7506229,84.1472,17770174.11515287,17420,2018-Q1,17420
jammu-&-kashmir,shopian district,33.72078365,74.77142439698211,3598498.6345729744,5083,2018-Q1,5083
madhya-pradesh,shivpuri district,25.37524125,77.82811932629714,59453330.49424065,69731,2018-Q1,69731
karnataka,shivamogga district,13.9326093,75.574978,155561860.94620702,110195,2018-Q1,110195
himachal-pradesh,shimla district,30.75,77.5,84375526.97610706,54161,2018-Q1,54161
arunachal-pradesh,shi yomi district,28.1114301,96.82699963398372,0.0,0,2018-Q1,0
madhya-pradesh,sheopur district,25.6760912,76.7120469,23353770.83795457,26051,2018-Q1,26051
bihar,sheohar district,24.8926007,86.9140729,22183882.57736211,25700,2018-Q1,25700
bihar,sheikhpura district,24.7270817,84.5693914,23630132.07561916,20728,2018-Q1,20728
uttar-pradesh,shamli district,28.630261,77.4133068,62956282.66086191,50512,2018-Q1,50512
madhya-pradesh,shajapur district,23.4207601,76.27436,96403911.7122278,100763,2018-Q1,100763
uttar-pradesh,shahjahanpur district,27.8552433,79.8944047,80844329.2094227,106997,2018-Q1,106997
punjab,shahid bhagat singh nagar district,11.70086195,75.53600908707303,31984799.71713729,20891,2018-Q1,20891
madhya-pradesh,shahdol district,23.3104023,81.3702978,84881495.14477746,64833,2018-Q1,64833
delhi,shahdara district,28.67761171690832,77.290354062108,326458215.3839487,193886,2018-Q1,193886
mizoram,serchhip district,23.3078982,92.8556728,1729998.4078016216,691,2018-Q1,691
tripura,sepahijala district,24.0715915,91.6025823,13224752.635975951,14107,2018-Q1,14107
madhya-pradesh,seoni district,21.6843487,80.2715206,68746483.32036975,82748,2018-Q1,82748
manipur,senapati district,25.333333,94.166667,577840.1682329748,613,2018-Q1,613
madhya-pradesh,sehore district,23.1981078,77.0812948,253627459.6680538,262578,2018-Q1,262578
rajasthan,sawai madhopur district,26.22901855,76.3043561491013,126783052.02130952,151565,2018-Q1,151565
madhya-pradesh,satna district,24.5684403,80.8321439,142054016.7823392,169230,2018-Q1,169230
maharashtra,satara district,17.6913198,74.0094374,264857537.36135083,247012,2018-Q1,247012
punjab,sas nagar district,31.32124525,74.84130629340785,465850273.6343405,285119,2018-Q1,285119
bihar,saran district,25.6085763,85.1993479,171839806.769135,149786,2018-Q1,149786
jharkhand,saraikela kharsawan district,24.26618475,87.25313851905128,74573902.81878725,83449,2018-Q1,83449
uttar-pradesh,sant kabeer nagar district,28.8067822,79.0140742,59126397.10591885,57222,2018-Q1,57222
punjab,sangrur district,31.32124525,74.84130629340785,118420389.5279365,89227,2018-Q1,89227
maharashtra,sangli district,16.8425456,74.60920165585244,241538564.2888379,231021,2018-Q1,231021
telangana,sangareddy district,19.1040149,78.340105,399236233.1575477,291510,2018-Q1,291510
uttar-pradesh,sambhal district,26.1561764,81.80450839427581,61975314.16828516,53722,2018-Q1,53722
odisha,sambalpur district,21.4,83.883333,130860854.9575344,135539,2018-Q1,135539
jammu-&-kashmir,samba district,32.57591175,75.12034455530063,21534891.0416242,14795,2018-Q1,14795
bihar,samastipur district,25.75,85.916667,213634124.8258972,222241,2018-Q1,222241
tamil-nadu,salem district,11.64696155,78.21069575456464,375963971.6782604,219916,2018-Q1,219916
mizoram,saiha district,23.481,93.309599,2188550.572811981,482,2018-Q1,482
jharkhand,sahebganj district,25.032043700000003,87.69143108001742,44038697.06983768,30741,2018-Q1,30741
bihar,saharsa district,25.8875611,86.5901104,82038819.77477607,88087,2018-Q1,88087
uttar-pradesh,saharanpur district,29.95566895,77.5596488632492,190242510.5856398,201611,2018-Q1,201611
madhya-pradesh,sagar district,21.5479393,79.5481447,158907811.381955,217079,2018-Q1,217079
gujarat,sabar kantha district,23.8689411,73.01447412154508,88114407.80209638,105266,2018-Q1,105266
punjab,rupnagar district,30.2102325,73.9925288,51094982.22818903,33059,2018-Q1,33059
uttarakhand,rudraprayag district,30.2864682,78.9814996,12517358.3009158,10107,2018-Q1,10107
bihar,rohtas district,24.93928775,84.01945448852067,181378994.9786085,201231,2018-Q1,201231
haryana,rohtak district,28.8995429,76.5844714,215207976.23801097,121728,2018-Q1,121728
meghalaya,ribhoi district,24.3429852,93.6928709,8736566.953918608,6029,2018-Q1,6029
haryana,rewari district,28.2169291,76.58118448832133,280095218.8487885,199418,2018-Q1,199418
madhya-pradesh,rewa district,23.1689247,80.03308113718485,249549304.77768272,210786,2018-Q1,210786
jammu-&-kashmir,reasi district,33.20599085,74.862679360101,12816155.33273841,7433,2018-Q1,7433
odisha,rayagada district,19.1643623,83.4077243,63041849.54983255,57875,2018-Q1,57875
maharashtra,ratnagiri district,16.9883802,73.2993118160657,68234354.14796054,57950,2018-Q1,57950
madhya-pradesh,ratlam district,22.71673845,75.88149165574566,147489689.599983,128218,2018-Q1,128218
tamil-nadu,ranipet district,12.91862425,79.40819212569048,68782429.03208953,50346,2018-Q1,50346
telangana,rangareddy district,16.5,78.25,2677304926.137567,1459174,2018-Q1,1459174
jharkhand,ranchi district,23.0,85.0,434234048.4962647,356622,2018-Q1,356622
uttar-pradesh,rampur district,28.79406825,79.1859304458554,67896658.68947415,89298,2018-Q1,89298
jharkhand,ramgarh district,34.5140696,74.19136702721829,85844869.66475454,97459,2018-Q1,97459
jammu-&-kashmir,ramban district,33.33328915,75.19847626653356,7284248.818676664,5326,2018-Q1,5326
tamil-nadu,ramanathapuram district,9.5205576,78.51846345155016,45696810.24106984,24581,2018-Q1,24581
karnataka,ramanagara district,12.72465905,77.32018505519862,195057353.0378645,124329,2018-Q1,124329
rajasthan,rajsamand district,25.2892459,73.8241077454327,89471009.74090861,56704,2018-Q1,56704
jammu-&-kashmir,rajouri district,33.26636775,74.34384695789798,16045672.10644644,10199,2018-Q1,10199
chhattisgarh,rajnandgaon district,21.166667,81.0,79830832.05145703,73040,2018-Q1,73040
gujarat,rajkot district,22.8159425,70.8316013,296803513.78809375,219190,2018-Q1,219190
madhya-pradesh,rajgarh district,25.3338446,77.5083732,149723488.7683494,131433,2018-Q1,131433
telangana,rajanna sircilla district,19.1040149,78.340105,96136732.16955988,68682,2018-Q1,68682
madhya-pradesh,raisen district,23.3331473,77.7801239,124143402.5560421,157756,2018-Q1,157756
chhattisgarh,raipur district,21.2317387,81.6401796,474633363.89817554,323570,2018-Q1,323570
chhattisgarh,raigarh district,22.23617945,83.35295335037318,140463994.7227481,133135,2018-Q1,133135
maharashtra,raigad district,20.1700227,79.97914161206661,481978060.4382123,310127,2018-Q1,310127
karnataka,raichur district,16.054719400000003,76.90160088383311,181240414.7069753,131182,2018-Q1,131182
uttar-pradesh,rae bareli district,26.25,81.25,83209946.42774141,91518,2018-Q1,91518
west-bengal,purulia district,23.3409582,86.359433,86934374.95930237,234356,2018-Q1,234356
bihar,purnia district,25.774436,87.410032125,139947209.01716912,132262,2018-Q1,132262
odisha,puri district,19.8142712,85.8299503,173702320.31741902,279071,2018-Q1,279071
bihar,purbi champaran district,24.8926007,86.9140729,264192918.45434484,254643,2018-Q1,254643
west-bengal,purba medinipur district,22.2788123,87.92250435718134,380534345.7354028,516243,2018-Q1,516243
west-bengal,purba bardhaman district,30.5,78.666667,212356023.73788372,396998,2018-Q1,396998
maharashtra,pune district,18.527863,73.85568328231989,5378982326.835919,3842929,2018-Q1,3842929
jammu-&-kashmir,pulwama district,33.9490472,75.04183347471374,24777476.30844358,35793,2018-Q1,35793
tamil-nadu,pudukkottai district,10.2903072,78.81736165831396,65083487.93183672,35973,2018-Q1,35973
puducherry,puducherry district,11.92201155,79.7951365161579,136205607.9458232,86486,2018-Q1,86486
uttar-pradesh,prayagraj district,25.5,81.5,652988000.3586867,628453,2018-Q1,628453
rajasthan,pratapgarh district,24.02181175,74.62410748793954,35625792.16149665,32262,2018-Q1,32262
uttar-pradesh,pratapgarh district,25.9219600442,82.0024335326,96708177.78152454,118509,2018-Q1,118509
andhra-pradesh,prakasam district,15.2282086,79.87449940066091,748990775.8676485,534757,2018-Q1,534757
gujarat,porbandar district,21.6021982,69.85433746437499,28254689.4826448,16381,2018-Q1,16381
jammu-&-kashmir,poonch district,33.702939,74.24990151547188,509120439.3079825,398963,2018-Q1,398963
uttarakhand,pithoragarh district,30.12666775,80.48338013734374,19129399.86161669,18593,2018-Q1,18593
uttar-pradesh,pilibhit district,28.49520765,80.10754080018077,59744410.61462423,83803,2018-Q1,83803
manipur,pherzawl district,24.2634436330316,93.19096471191015,778.0896294258192,2,2018-Q1,2
nagaland,phek district,25.709953650000003,94.46436151085854,1347986.0495203384,1397,2018-Q1,1397
nagaland,peren district,25.5354667,93.7352403,1228042.9089448638,587,2018-Q1,587
tamil-nadu,perambalur district,11.2902641,78.9300404012642,19364164.45474417,13293,2018-Q1,13293
telangana,peddapalle district,19.1040149,78.340105,199610181.1780959,169274,2018-Q1,169274
uttarakhand,pauri garhwal district,30.1507888,78.7737617,58626307.50357637,49412,2018-Q1,49412
bihar,patna district,25.46737665,85.19581528126407,1282492050.639251,1197281,2018-Q1,1197281
punjab,patiala district,30.1407973,74.2001558,216716752.3274328,131111,2018-Q1,131111
punjab,pathankot district,32.301710400000005,75.65864246622084,81047251.32470225,51474,2018-Q1,51474
kerala,pathanamthitta district,9.3675015,76.6586492,44871379.63442598,35435,2018-Q1,35435
gujarat,patan district,20.96661175,70.42921752675778,81974812.41577709,105705,2018-Q1,105705
bihar,pashchim champaran district,27.0,84.5,236190496.6430266,215866,2018-Q1,215866
west-bengal,paschim medinipur district,21.8360051,87.4317229,286483484.5978188,419331,2018-Q1,419331
west-bengal,paschim bardhaman district,26.4811994,89.5279728,298947240.5775568,350033,2018-Q1,350033
maharashtra,parbhani district,19.2713708,76.7644813,109058549.633701,126868,2018-Q1,126868
arunachal-pradesh,papum pare district,27.5013437,96.5242944,32555848.46233147,14224,2018-Q1,14224
madhya-pradesh,panna district,24.7172329,80.1873717,27325866.56663143,37817,2018-Q1,37817
haryana,panipat district,28.7312325,75.892349866212,263054774.7449156,183960,2018-Q1,183960
haryana,panchkula district,30.7108567,76.845983,142847688.49278012,86298,2018-Q1,86298
gujarat,panch mahals district,23.0,74.0,65556534.78851059,86317,2018-Q1,86317
haryana,palwal district,29.6943382,77.00424800442084,145340107.56054282,97942,2018-Q1,97942
rajasthan,pali district,25.6051226,73.41650554658088,141412669.85341722,111172,2018-Q1,111172
maharashtra,palghar district,20.1700227,79.97914161206661,432288177.5824667,316766,2018-Q1,316766
jharkhand,palamu district,23.916667,84.083333,128141542.2688809,84608,2018-Q1,84608
kerala,palakkad district,10.78789845,76.47408711165895,155278345.5406727,119324,2018-Q1,119324
jharkhand,pakur district,23.916667,84.083333,10639883.90458078,17321,2018-Q1,17321
arunachal-pradesh,pakke kessang district,27.1061731,92.9311395,9131.4042057372,9,2018-Q1,9
maharashtra,osmanabad district,18.18788,76.035779,137513718.00884372,129616,2018-Q1,129616
odisha,nuapada district,20.7990808,82.5346304,16219184.747249331,22483,2018-Q1,22483
delhi,north west district,28.7022706718,77.105726065556,614242861.0675646,387431,2018-Q1,387431
west-bengal,north twenty four parganas district,23.3409582,86.359433,1282978629.104089,1235602,2018-Q1,1235602
tripura,north tripura district,23.9922833,91.856786,10869174.62660154,9915,2018-Q1,9915
goa,north goa district,15.5368654988401,73.86949663890636,187108291.9852504,95114,2018-Q1,95114
meghalaya,north garo hills district,24.3429852,93.6928709,652554.6654640209,922,2018-Q1,922
delhi,north east district,28.70729655487928,77.266131587231,261468886.5374215,180160,2018-Q1,180160
delhi,north district,28.72837890951385,77.1672315398,574580634.2506722,361539,2018-Q1,361539
sikkim,north district,27.504893699,88.53981499,5176776.803176152,3446,2018-Q1,3446
andaman-&-nicobar-islands,north and middle andaman district,11.55482845,92.23849,931663.0770939871,442,2018-Q1,442
manipur,noney district,17.6913198,74.0094374,747261.2810295916,646,2018-Q1,646
telangana,nizamabad district,18.6687404,78.0989938,174181538.057294,140986,2018-Q1,140986
madhya-pradesh,niwari district,25.5575031,78.1466102,12106652.7838822,20669,2018-Q1,20669
telangana,nirmal district,19.1040149,78.340105,86249120.42652902,63804,2018-Q1,63804
andaman-&-nicobar-islands,nicobars district,10.7056905,92.48746789633373,1139848.801225994,528,2018-Q1,528
delhi,new delhi district,28.6162182361102,77.20963693950131,1478916789.169149,883737,2018-Q1,883737
madhya-pradesh,neemuch district,25.6760912,76.7120469,64779675.82075251,73718,2018-Q1,73718
odisha,nayagarh district,20.1280409,85.1066485,109752751.41762152,195162,2018-Q1,195162
bihar,nawada district,24.7270817,84.5693914,81161592.44495997,78480,2018-Q1,78480
gujarat,navsari district,20.952407,72.9323831,229707588.7171033,159975,2018-Q1,159975
maharashtra,nashik district,19.9969676,73.7782466,874435847.1021329,669259,2018-Q1,669259
madhya-pradesh,narsinghpur district,22.9492648,79.1856846,87244331.64517592,116931,2018-Q1,116931
gujarat,narmada district,21.73830395,73.62736015921328,15120948.42838736,13920,2018-Q1,13920
chhattisgarh,narayanpur district,19.723781,81.2336786,2964107.201561708,2998,2018-Q1,2998
telangana,narayanpet district,10.6878621,79.49794371209825,42264263.62486112,38804,2018-Q1,38804
maharashtra,nandurbar district,21.3386847,74.2344823,70543831.7235167,60163,2018-Q1,60163
maharashtra,nanded district,19.15915835,77.3032699373139,195376791.8041686,221472,2018-Q1,221472
arunachal-pradesh,namsai district,27.6741942,91.93620587613825,2162984.705083958,1400,2018-Q1,1400
tamil-nadu,namakkal district,11.30338895,78.1186040211884,178022610.2001903,99497,2018-Q1,99497
telangana,nalgonda district,17.0557615,79.2779955,267825160.5037025,204137,2018-Q1,204137
assam,nalbari district,25.083333,92.916667,12393870.99254189,16878,2018-Q1,16878
bihar,nalanda district,25.4374355,85.2919909,190613485.9647957,208901,2018-Q1,208901
uttarakhand,nainital district,29.2185482,79.52951525,116698562.4836787,106949,2018-Q1,106949
maharashtra,nagpur district,21.1170373,79.1045331,781981176.1740795,592456,2018-Q1,592456
rajasthan,nagaur district,27.05890605,74.1760832159963,245926094.944892,226358,2018-Q1,226358
telangana,nagarkurnool district,19.1040149,78.340105,157664183.85690182,83679,2018-Q1,83679
tamil-nadu,nagapattinam district,10.60262025,79.7619347994777,46160213.43216584,25394,2018-Q1,25394
assam,nagaon district,27.4881672,95.3623358,56352631.29147629,66695,2018-Q1,66695
west-bengal,nadia district,23.4056806,88.4913312,307840167.7091276,549427,2018-Q1,549427
odisha,nabarangpur district,19.2288319,82.5668344,32425549.03254462,29925,2018-Q1,29925
karnataka,mysuru district,12.1988434,76.61353212165531,515455840.3810141,331051,2018-Q1,331051
bihar,muzaffarpur district,26.1667052,85.4166314,394717112.59667057,388401,2018-Q1,388401
uttar-pradesh,muzaffarnagar district,27.8552433,79.8944047,174688164.73651972,141166,2018-Q1,141166
jammu-&-kashmir,muzaffarabad district,30.0417376,79.089691,14559.8034061516,13,2018-Q1,13
west-bengal,murshidabad district,24.08632855,88.26684963941861,421068895.86841553,833479,2018-Q1,833479
bihar,munger district,25.3795105,86.4626467597708,64455596.263603695,64639,2018-Q1,64639
chhattisgarh,mungeli district,20.2647118,81.4951987,15819138.351462012,19819,2018-Q1,19819
maharashtra,mumbai suburban district,19.2713708,76.7644813,2385242801.288171,1444587,2018-Q1,1444587
maharashtra,mumbai district,19.0517979,72.8292773,3923116793.952079,2671029,2018-Q1,2671029
telangana,mulugu district,16.5,78.25,42538489.479959294,26582,2018-Q1,26582
madhya-pradesh,morena district,26.4961372,77.9986659,106573744.5790159,107452,2018-Q1,107452
gujarat,morbi district,22.79314,70.88832711034716,70378385.89627899,58217,2018-Q1,58217
uttar-pradesh,moradabad district,29.0786044,79.0507168,214140867.6438931,144223,2018-Q1,144223
nagaland,mon district,26.7238973,95.0287876,2962723.1216541342,1851,2018-Q1,1851
nagaland,mokokchung district,26.4929778,94.8042633,5653655.116717219,3428,2018-Q1,3428
punjab,moga district,32.033379,75.3949932,59439080.88744533,32992,2018-Q1,32992
uttar-pradesh,mirzapur district,24.9325993,82.64710860698771,90490890.5074774,110239,2018-Q1,110239
jammu-&-kashmir,mirpur district,33.2033829,73.78971926402036,3052181.909064396,1320,2018-Q1,1320
haryana,mewat district,28.7312325,75.892349866212,132978792.61417452,80255,2018-Q1,80255
uttar-pradesh,meerut district,28.6859637,77.43533643685419,345744809.58975303,267015,2018-Q1,267015
telangana,medchal malkajgiri district,16.5,78.25,1912837340.5006711,1131530,2018-Q1,1131530
telangana,medak district,16.3637095,78.0647251,89096759.16651198,74192,2018-Q1,74192
odisha,mayurbhanj district,21.75,86.5,151786389.20530608,208105,2018-Q1,208105
uttar-pradesh,mau district,25.2133779,83.0334827,87473873.1545512,99946,2018-Q1,99946
uttar-pradesh,mathura district,27.5591791,77.68175451707637,190549339.0768092,161451,2018-Q1,161451
assam,marigaon district,26.70472375,92.04215071409465,105067294.498684,79832,2018-Q1,79832
punjab,mansa district,30.3360996,74.11794319222481,41535817.90595643,47047,2018-Q1,47047
karnataka,mandya district,12.6336348,76.73023183296073,141585191.42723832,105447,2018-Q1,105447
madhya-pradesh,mandsaur district,24.0697229,75.0727169,82585094.000837,97213,2018-Q1,97213
madhya-pradesh,mandla district,22.5962197,80.3702688,37490484.59254223,28899,2018-Q1,28899
himachal-pradesh,mandi district,32.5338976,76.0157454,50308276.31329341,44169,2018-Q1,44169
telangana,mancherial district,18.4424788,79.1307265573114,184652405.3695281,127357,2018-Q1,127357
mizoram,mamit district,23.909285,92.4947387,5729263.410353888,1133,2018-Q1,1133
odisha,malkangiri district,18.33798,81.8759462,13922771.65466401,12181,2018-Q1,12181
west-bengal,maldah district,25.0,88.0,283624702.4245752,491756,2018-Q1,491756
kerala,malappuram district,10.61381845,76.51663324239766,256416524.0373311,239508,2018-Q1,239508
assam,majuli district,26.70472375,92.04215071409465,1326721.023225203,2598,2018-Q1,2598
uttar-pradesh,mainpuri district,27.2307398,79.0406375,48645519.0242308,66092,2018-Q1,66092
uttar-pradesh,mahoba district,25.292924,79.8848158,30113589.580414247,36881,2018-Q1,36881
gujarat,mahisagar district,23.1916967,73.6626352964019,24228879.81974011,25888,2018-Q1,25888
gujarat,mahesana district,23.57070915,72.44523648734277,213031001.6165129,227748,2018-Q1,227748
haryana,mahendragarh district,28.3526818,77.2778173,119624307.9803069,89413,2018-Q1,89413
puducherry,mahe district,11.70086195,75.53600908707303,2456276.910513108,1512,2018-Q1,1512
telangana,mahbubnagar district,16.5,78.25,141574548.6424824,96136,2018-Q1,96136
chhattisgarh,mahasamund district,21.113837,82.092952,69201346.06665277,64238,2018-Q1,64238
uttar-pradesh,maharajganj district,27.1436733,83.5395965,120097062.4622237,105577,2018-Q1,105577
telangana,mahabubabad district,19.1040149,78.340105,81345319.08381961,73810,2018-Q1,73810
tamil-nadu,madurai district,9.9369266,78.00782300920798,232151304.34595773,129858,2018-Q1,129858
bihar,madhubani district,25.0,86.916667,203080851.021446,173946,2018-Q1,173946
bihar,madhepura district,26.7586112,94.20640848109768,85073945.80231695,79822,2018-Q1,79822
mizoram,lunglei district,23.3078982,92.8556728,2350555.318424233,1604,2018-Q1,1604
punjab,ludhiana district,30.479765,74.5354916,563038260.5420344,427197,2018-Q1,427197
uttar-pradesh,lucknow district,28.8067822,79.0140742,1271848634.413644,949749,2018-Q1,949749
arunachal-pradesh,lower subansiri district,27.8,93.6,3650727.893614269,1477,2018-Q1,1477
arunachal-pradesh,lower siang district,28.477492,94.81655728795752,2337960.7148240386,1292,2018-Q1,1292
arunachal-pradesh,lower dibang valley district,17.0347692,81.7819183,1076236.814073793,1356,2018-Q1,1356
nagaland,longleng district,26.4929778,94.8042633,547262.5934366982,605,2018-Q1,605
arunachal-pradesh,longding district,27.8,93.6,4361531.578447229,2321,2018-Q1,2321
arunachal-pradesh,lohit district,28.0060625,96.2431946,11496949.54576835,3747,2018-Q1,3747
jharkhand,lohardaga district,23.43141321078923,84.6772535683834,16349311.32551814,15716,2018-Q1,15716
arunachal-pradesh,lepa rada district,28.0060625,96.2431946,403149.46702687367,288,2018-Q1,288
ladakh,leh ladakh district,34.1642029,77.5848133,9101926.692070464,4845,2018-Q1,4845
mizoram,lawngtlai district,22.7401468,93.0509285,547180.2110017058,735,2018-Q1,735
maharashtra,latur district,18.3931679,76.56402547242254,237246239.7226338,259016,2018-Q1,259016
jharkhand,latehar district,23.916667,84.083333,35121829.70128228,20416,2018-Q1,20416
uttar-pradesh,lalitpur district,24.6967125,78.411697,44287534.395511895,56296,2018-Q1,56296
lakshadweep,lakshadweep district,10.8132489,73.6804620941119,1928611.1808777405,778,2018-Q1,778
bihar,lakhisarai district,25.2830169,86.0190997,43611675.07515131,42937,2018-Q1,42937
assam,lakhimpur district,27.2382645,94.1053145,17798094.85123946,24946,2018-Q1,24946
himachal-pradesh,lahul and spiti district,32.5338976,76.0157454,441404.9147610669,335,2018-Q1,335
uttar-pradesh,kushinagar district,26.8632735,83.9553228,220348476.4472755,216583,2018-Q1,216583
arunachal-pradesh,kurung kumey district,27.98636765,93.15783468644102,99416.58027150274,84,2018-Q1,84
haryana,kurukshetra district,30.0,76.75,172343157.3271751,110204,2018-Q1,110204
andhra-pradesh,kurnool district,15.8344103,78.0499956,764905298.7350456,679623,2018-Q1,679623
jammu-&-kashmir,kupwara district,34.5140696,74.19136702721829,17085910.32675961,11185,2018-Q1,11185
telangana,kumuram bheem asifabad district,17.0557615,79.2779955,29592040.66740245,26226,2018-Q1,26226
himachal-pradesh,kullu district,32.213356899999994,76.32112520307928,36599342.90480824,23978,2018-Q1,23978
jammu-&-kashmir,kulgam district,33.6250902,74.69488802561563,9213671.326669725,23587,2018-Q1,23587
tamil-nadu,krishnagiri district,12.5150555,78.00762134333985,253907426.24551612,153618,2018-Q1,153618
andhra-pradesh,krishna district,17.0347692,81.7819183,1284255179.61562,863935,2018-Q1,863935
arunachal-pradesh,kra daadi district,27.9366293,92.6658618,495375.1454853307,207,2018-Q1,207
kerala,kozhikode district,11.46559355,75.89194000061082,264216575.6141083,206971,2018-Q1,206971
kerala,kottayam district,9.5003001,76.8353071,132788590.2125131,102446,2018-Q1,102446
rajasthan,kota district,25.196682950000003,76.00096873038872,313545175.3534258,317338,2018-Q1,317338
chhattisgarh,korea district,20.2647118,81.4951987,44008432.87485616,39025,2018-Q1,39025
chhattisgarh,korba district,22.5198217,82.63500285150224,99366683.1364322,93345,2018-Q1,93345
odisha,koraput district,18.8848483,82.5596997,87612627.38374956,64106,2018-Q1,64106
karnataka,koppal district,15.57825725,76.31063911702896,79650000.28856131,63835,2018-Q1,63835
chhattisgarh,kondagaon district,19.25,81.25,25283402.36998293,22249,2018-Q1,22249
kerala,kollam district,8.8855684,76.5892353,93495184.48584013,76713,2018-Q1,76713
west-bengal,kolkata district,26.5257678,88.7198637,2753347660.1429114,2043129,2018-Q1,2043129
maharashtra,kolhapur district,16.5756833,74.3125599,354723905.3719445,351519,2018-Q1,351519
mizoram,kolasib district,24.2314023,92.6766193,3891685.392413744,1457,2018-Q1,1457
karnataka,kolar district,13.1794187,78.26805837975584,167783200.2327131,133622,2018-Q1,133622
assam,kokrajhar district,26.2074223,91.6771799,17935304.65287403,16397,2018-Q1,16397
nagaland,kohima district,25.6949988,94.12330065485534,20744033.40863154,11070,2018-Q1,11070
jharkhand,koderma district,24.26618475,87.25313851905128,76001334.68492848,58922,2018-Q1,58922
karnataka,kodagu district,12.2335192,76.2818865,42386913.56106545,23443,2018-Q1,23443
west-bengal,koch bihar district,26.25,89.5,88320338.70770223,155388,2018-Q1,155388
jammu-&-kashmir,kishtwar district,33.61562,75.87939724344325,3514299.9889703216,2054,2018-Q1,2054
bihar,kishanganj district,26.29863795,87.95314810923409,45880790.35124814,38179,2018-Q1,38179
nagaland,kiphire district,25.8826359,94.781588,558831.611179116,255,2018-Q1,255
himachal-pradesh,kinnaur district,31.5864184,78.396745,8101945.186458489,5815,2018-Q1,5815
jharkhand,khunti district,24.9303981,87.82697147981766,12238451.41385256,10377,2018-Q1,10377
tripura,khowai district,24.0715915,91.6025823,7242490.357963288,8838,2018-Q1,8838
odisha,khordha district,20.8431294,83.90634540989736,1064565482.443082,1013916,2018-Q1,1013916
uttar-pradesh,kheri district,28.4299696,80.3176448,110918009.4406958,176154,2018-Q1,176154
gujarat,kheda district,22.8548705,72.99330606361002,94652160.87215446,104154,2018-Q1,104154
madhya-pradesh,khargone district,21.8318939,75.6286115,135612637.1038007,108869,2018-Q1,108869
telangana,khammam district,17.250782,80.1524,245857422.1874744,183964,2018-Q1,183964
bihar,khagaria district,25.50877,86.4756484,71955894.82466315,65892,2018-Q1,65892
odisha,kendujhar district,20.7990808,82.5346304,196242627.5946798,259941,2018-Q1,259941
odisha,kendrapara district,20.5021306,86.4259806,109453626.87180772,189692,2018-Q1,189692
uttar-pradesh,kaushambi district,28.64364045,77.32463494964549,28667776.553238448,37326,2018-Q1,37326
madhya-pradesh,katni district,23.8323636,80.3920242,54955544.75398399,65116,2018-Q1,65116
bihar,katihar district,25.543251265566692,87.56777308657826,129701645.5273873,138075,2018-Q1,138075
jammu-&-kashmir,kathua district,32.5825837,75.61047967120052,22353839.21295397,17643,2018-Q1,17643
uttar-pradesh,kasganj district,27.969777,78.5981655,36239334.741878524,40039,2018-Q1,40039
kerala,kasaragod district,12.42219635,75.19044457747756,46522871.82306546,37597,2018-Q1,37597
tamil-nadu,karur district,10.8217671,78.38286541157868,76141519.7297589,42198,2018-Q1,42198
haryana,karnal district,29.6943382,77.00424800442084,247718779.06675452,169313,2018-Q1,169313
telangana,karimnagar district,18.4424788,79.1307265573114,271526470.0733862,224324,2018-Q1,224324
assam,karimganj district,24.86648155,92.35121508187882,17842353.51962607,17261,2018-Q1,17261
ladakh,kargil district,33.802819,76.4730095688732,3430931.079044319,1244,2018-Q1,1244
assam,karbi anglong district,26.0,93.5,14875159.1867853,15032,2018-Q1,15032
rajasthan,karauli district,26.51583285,77.05659651705874,87918690.56937645,97830,2018-Q1,97830
puducherry,karaikal district,10.91564885,79.80694879844232,17996501.51665456,10266,2018-Q1,10266
punjab,kapurthala district,31.25,75.25,79325181.77412872,65770,2018-Q1,65770
uttar-pradesh,kanpur nagar district,26.1561764,81.80450839427581,550298919.9825964,493390,2018-Q1,493390
uttar-pradesh,kanpur dehat district,27.2307398,79.0406375,43732800.279438965,51507,2018-Q1,51507
kerala,kannur district,11.9863343,75.54797042899436,112128543.0761299,92260,2018-Q1,92260
tamil-nadu,kanniyakumari district,11.0600516,77.0679581,72304912.26185375,44474,2018-Q1,44474
uttar-pradesh,kannauj district,27.3817304,79.602854,55371938.0412592,61395,2018-Q1,61395
chhattisgarh,kanker district,20.2647118,81.4951987,28373231.31840328,29788,2018-Q1,29788
himachal-pradesh,kangra district,32.213356899999994,76.32112520307928,83269925.3876329,62061,2018-Q1,62061
manipur,kangpokpi district,17.6913198,74.0094374,12129421.38384918,4187,2018-Q1,4187
odisha,kandhamal district,21.8895058,84.0485068,27561407.789233644,31647,2018-Q1,31647
tamil-nadu,kancheepuram district,12.87960515,79.70427615297989,538409899.0029244,308279,2018-Q1,308279
assam,kamrup metropolitan district,26.75,92.5,284766218.9848748,194617,2018-Q1,194617
assam,kamrup district,26.2074223,91.6771799,41868129.255927615,47859,2018-Q1,47859
arunachal-pradesh,kamle district,28.4,94.55,7971.330494807651,14,2018-Q1,14
manipur,kamjong district,25.0,94.5,236107.7403536682,329,2018-Q1,329
telangana,kamareddy district,16.5,78.25,101353626.96050587,84914,2018-Q1,84914
tamil-nadu,kallakkurichi district,11.690524,78.98242156692304,53643331.73237316,32666,2018-Q1,32666
west-bengal,kalimpong district,27.02787695,88.64606085772425,7706385.682244161,4972,2018-Q1,4972
odisha,kalahandi district,19.75,83.0,56923003.74994819,101889,2018-Q1,101889
karnataka,kalaburagi district,17.24191785,76.7753828143516,212180924.393686,152325,2018-Q1,152325
manipur,kakching district,24.84529,94.1449785,1924584.238445488,1622,2018-Q1,1622
haryana,kaithal district,28.4492944,77.03065871006021,149686426.21811038,98466,2018-Q1,98466
bihar,kaimur bhabua district,24.75750955,83.72099680873878,70110158.70484145,64493,2018-Q1,64493
gujarat,kachchh district,23.2396061,69.6734288,316933354.79309577,217912,2018-Q1,217912
chhattisgarh,kabirdham district,22.8825209,84.1362145,22661025.448303577,32615,2018-Q1,32615
gujarat,junagadh district,21.340255,70.42022268315017,69940293.0266568,56897,2018-Q1,56897
assam,jorhat district,26.7586112,94.20640848109768,41164542.05596451,33322,2018-Q1,33322
telangana,jogulamba gadwal district,16.5,78.25,62386167.39526133,50179,2018-Q1,50179
rajasthan,jodhpur district,26.73668055,72.87475506802181,467963867.1674503,317285,2018-Q1,317285
manipur,jiribam district,24.84529,94.1449785,3564799.4519929583,1305,2018-Q1,1305
haryana,jind district,29.5,76.25,186842136.1964325,117357,2018-Q1,117357
rajasthan,jhunjhunu district,25.196682950000003,76.00096873038872,249837885.50885952,216379,2018-Q1,216379
odisha,jharsuguda district,21.8895058,84.0485068,99628072.57447764,85127,2018-Q1,85127
west-bengal,jhargram district,22.447609,86.998449,33316470.25275091,66167,2018-Q1,66167
uttar-pradesh,jhansi district,28.6839951,77.4530398,187418140.1917497,187592,2018-Q1,187592
rajasthan,jhalawar district,24.31255575,76.52279955036622,84754167.55596045,84376,2018-Q1,84376
haryana,jhajjar district,30.0,76.75,187960033.8459023,115322,2018-Q1,115322
madhya-pradesh,jhabua district,22.6579114,75.8850109,23988491.44342114,20133,2018-Q1,20133
bihar,jehanabad district,25.46737665,85.19581528126407,47274894.9525144,52401,2018-Q1,52401
telangana,jaya shankar bhalupally district,16.5,78.25,76221067.1244818,53916,2018-Q1,53916
uttar-pradesh,jaunpur district,25.7592013,82.6968142,219620789.4796317,236534,2018-Q1,236534
chhattisgarh,jashpur district,22.8825209,84.1362145,39068620.43575929,41174,2018-Q1,41174
chhattisgarh,janjgir champa district,22.23617945,83.35295335037318,223984259.5478169,219761,2018-Q1,219761
telangana,jangaon district,17.0557615,79.2779955,81262680.16798872,80758,2018-Q1,80758
bihar,jamui district,24.7270817,84.5693914,44565632.6441077,48226,2018-Q1,48226
jharkhand,jamtara district,23.0,85.0,37530176.98115201,21925,2018-Q1,21925
gujarat,jamnagar district,22.31008,70.10300203232322,166162325.3364291,121341,2018-Q1,121341
jammu-&-kashmir,jammu district,32.7681864,74.92113175477952,127452979.3587345,81381,2018-Q1,81381
west-bengal,jalpaiguri district,26.62648365,88.73407701468993,96252642.72890764,120349,2018-Q1,120349
rajasthan,jalore district,25.343876,72.624222,75229021.17082818,63373,2018-Q1,63373
maharashtra,jalna district,19.83228,75.874466,147117543.1365394,154861,2018-Q1,154861
maharashtra,jalgaon district,24.9072406,79.5844054,346720332.5468058,332668,2018-Q1,332668
uttar-pradesh,jalaun district,26.0,79.5,63496877.79661986,90820,2018-Q1,90820
punjab,jalandhar district,31.32124525,74.84130629340785,193577710.74675983,118981,2018-Q1,118981
odisha,jajapur district,19.5,84.5,204373666.27913052,362382,2018-Q1,362382
rajasthan,jaisalmer district,27.0264162,70.77751197645885,60441094.76527367,42472,2018-Q1,42472
rajasthan,jaipur district,27.1506772,75.74701641691182,2953086960.141372,2417174,2018-Q1,2417174
telangana,jagtial district,16.3637095,78.0647251,119523180.7146184,93840,2018-Q1,93840
odisha,jagatsinghapur district,22.25,84.5,119770991.4325416,226525,2018-Q1,226525
madhya-pradesh,jabalpur district,23.22420115,79.98248901574848,336129604.0896717,294739,2018-Q1,294739
madhya-pradesh,indore district,22.71113445,75.80768747988787,1455149304.995268,1066784,2018-Q1,1066784
manipur,imphal west district,24.3429852,93.6928709,46026262.66627429,29863,2018-Q1,29863
manipur,imphal east district,17.6913198,74.0094374,26028937.81002756,21960,2018-Q1,21960
kerala,idukki district,9.7253254,77.2103161,53257161.57039655,42527,2018-Q1,42527
telangana,hyderabad district,16.5,78.25,4287223789.76588,2545507,2018-Q1,2545507
west-bengal,howrah district,22.5801698,88.3362713,350424696.862291,346838,2018-Q1,346838
punjab,hoshiarpur district,31.3410997,74.6891758,64771754.25275349,43008,2018-Q1,43008
madhya-pradesh,hoshangabad district,22.7575717,77.7188006,116991872.4572823,121682,2018-Q1,121682
west-bengal,hooghly district,22.8924411,88.3994271,299741600.337428,380589,2018-Q1,380589
assam,hojai district,26.70472375,92.04215071409465,15849610.991098093,16917,2018-Q1,16917
haryana,hisar district,29.1699202,75.7185553,355732765.7536729,240517,2018-Q1,240517
maharashtra,hingoli district,19.7222317,77.1544772,57281673.81077535,70314,2018-Q1,70314
jharkhand,hazaribagh district,24.26618475,87.25313851905128,171297280.2361688,150709,2018-Q1,150709
karnataka,haveri district,14.714635,75.38456743047416,73634849.47856122,62962,2018-Q1,62962
uttar-pradesh,hathras district,27.5996322,78.0497369,51152501.99081381,51845,2018-Q1,51845
karnataka,hassan district,13.029374,76.17429357550145,134541685.05605823,88635,2018-Q1,88635
uttarakhand,haridwar district,30.1921734,79.1874877,394604404.7086088,308588,2018-Q1,308588
uttar-pradesh,hardoi district,28.0047122,78.476874,77897802.50321592,97252,2018-Q1,97252
madhya-pradesh,harda district,22.3406138,77.0934034,50800702.05670587,43384,2018-Q1,43384
uttar-pradesh,hapur district,28.7299677,77.775499,108354118.5389479,87259,2018-Q1,87259
rajasthan,hanumangarh district,29.3659533,74.29842896506344,184278585.0950017,183162,2018-Q1,183162
himachal-pradesh,hamirpur district,31.7491333,76.5036832,34057723.752499424,60464,2018-Q1,60464
uttar-pradesh,hamirpur district,25.9522649791,80.150605438,37506250.252365,32709,2018-Q1,32709
assam,hailakandi district,24.6827307,92.5622753,11065155.715426872,15865,2018-Q1,15865
madhya-pradesh,gwalior district,26.2,78.2,437805408.20386726,354555,2018-Q1,354555
haryana,gurugram district,28.4492944,77.03065871006021,2317083393.8960967,1408070,2018-Q1,1408070
punjab,gurdaspur district,31.9042299,75.22738141098935,57534101.01561795,33787,2018-Q1,33787
andhra-pradesh,guntur district,13.0108668,79.2249071,1108686589.026682,815932,2018-Q1,815932
madhya-pradesh,guna district,24.646649,77.3079412,81652639.69518772,99030,2018-Q1,99030
jharkhand,gumla district,23.1603759,84.45995652080032,15422722.31229529,12079,2018-Q1,12079
uttar-pradesh,gorakhpur district,26.7494212,83.3665766,377954039.7917809,324943,2018-Q1,324943
bihar,gopalganj district,26.5,84.333333,141070590.5118508,107134,2018-Q1,107134
maharashtra,gondia district,19.83228,75.874466,94654514.07400316,96798,2018-Q1,96798
uttar-pradesh,gonda district,27.8306549,77.8773701,106826666.5269602,101085,2018-Q1,101085
tripura,gomati district,23.4848604,91.4983684,11277259.255102549,12229,2018-Q1,12229
assam,golaghat district,26.5305611,93.9603353,19058581.94801061,22089,2018-Q1,22089
jharkhand,godda district,25.11124865,87.58268862604885,36033979.36832302,36994,2018-Q1,36994
assam,goalpara district,24.6827307,92.5622753,25331840.51625772,27132,2018-Q1,27132
jharkhand,giridih district,24.25,85.916667,131409945.94483332,131905,2018-Q1,131905
gujarat,gir somnath district,20.9911049,70.68806405046848,50970540.98586127,49292,2018-Q1,49292
uttar-pradesh,ghazipur district,28.6643991,77.3208548,188308913.7650246,183645,2018-Q1,183645
uttar-pradesh,ghaziabad district,28.711241,77.4445372,1146504201.162562,751503,2018-Q1,751503
bihar,gaya district,25.6058077,85.088915,227470166.14682052,231873,2018-Q1,231873
uttar-pradesh,gautam buddha nagar district,28.5770068,77.3394731,2065704006.9242053,1387567,2018-Q1,1387567
chhattisgarh,gariyaband district,18.9090479,81.3427523,38684589.83509959,40648,2018-Q1,40648
jharkhand,garhwa district,24.26618475,87.25313851905128,105426064.77369867,47858,2018-Q1,47858
odisha,ganjam district,19.5,84.5,379358026.2266699,399549,2018-Q1,399549
rajasthan,ganganagar district,29.5,74.0,291145139.7629897,238689,2018-Q1,238689
gujarat,gandhinagar district,23.2813262,72.65577884095586,318002413.6906459,237393,2018-Q1,237393
jammu-&-kashmir,ganderbal district,34.28885605000001,75.02959807422316,9107649.670974826,20571,2018-Q1,20571
odisha,gajapati district,18.7716498,84.0968126,28674112.96360713,27344,2018-Q1,27344
maharashtra,gadchiroli district,20.1700227,79.97914161206661,50790947.89558024,50072,2018-Q1,50072
karnataka,gadag district,15.416337,75.68075427946448,58062529.1315764,59137,2018-Q1,59137
punjab,firozepur district,31.25,75.25,68077291.26643817,43858,2018-Q1,43858
uttar-pradesh,firozabad district,28.3800183,79.4181912,80497170.15374462,74687,2018-Q1,74687
punjab,fazilka district,30.3360996,74.11794319222481,118915901.38096192,100864,2018-Q1,100864
uttar-pradesh,fatehpur district,27.1705419,78.0107255,63961334.200748056,74858,2018-Q1,74858
punjab,fatehgarh sahib district,32.301710400000005,75.65864246622084,43563884.00230488,31868,2018-Q1,31868
haryana,fatehabad district,29.6943382,77.00424800442084,105677674.3094569,116455,2018-Q1,116455
uttar-pradesh,farrukhabad district,27.3817304,79.602854,57199648.85871872,65940,2018-Q1,65940
punjab,faridkot district,31.3410997,74.6891758,45932933.791692935,31684,2018-Q1,31684
haryana,faridabad district,28.3526818,77.2778173,772738359.1903924,521939,2018-Q1,521939
uttar-pradesh,etawah district,26.7879984,79.0061831,71410064.15001303,67994,2018-Q1,67994
uttar-pradesh,etah district,27.5562222,78.658988,46749490.71535075,41571,2018-Q1,41571
tamil-nadu,erode district,11.49052815,77.35052739885393,198072372.7811173,114560,2018-Q1,114560
kerala,ernakulam district,10.0383947,76.50741452482532,630357709.4293847,390006,2018-Q1,390006
jharkhand,east singhbhum district,23.0,85.0,257229540.6549,220276,2018-Q1,220276
arunachal-pradesh,east siang district,28.3,95.15,5533620.186295529,3286,2018-Q1,3286
madhya-pradesh,east nimar district,21.75,76.583333,82356693.06047082,71864,2018-Q1,71864
meghalaya,east khasi hills district,24.3429852,93.6928709,31807959.17537334,23283,2018-Q1,23283
arunachal-pradesh,east kameng district,27.55778095,92.96738426595108,473824.76595106337,529,2018-Q1,529
meghalaya,east jaintia hills district,24.3429852,93.6928709,8299361.376028441,4896,2018-Q1,4896
andhra-pradesh,east godavari district,17.233496,81.7225986,1235785515.599726,943935,2018-Q1,943935
meghalaya,east garo hills district,24.3429852,93.6928709,781579.3759249721,749,2018-Q1,749
delhi,east district,28.54206225591,77.295723161089,594248348.3839921,357904,2018-Q1,357904
sikkim,east district,27.329005297,88.6098698391,35907388.05486955,24432,2018-Q1,24432
chhattisgarh,durg district,21.1874054,81.2793137,274435199.82481164,226774,2018-Q1,226774
rajasthan,dungarpur district,23.6723053,73.81664192753466,42233286.88465799,29611,2018-Q1,29611
jharkhand,dumka district,24.26618475,87.25313851905128,33366389.643900424,37867,2018-Q1,37867
gujarat,dohad district,23.0216238,72.5797068,45587112.10032356,39278,2018-Q1,39278
jammu-&-kashmir,doda district,33.13260995,75.58900789003377,7065930.233463201,4108,2018-Q1,4108
dadra-&-nagar-haveli-&-daman-&-diu,diu district,20.7159534,70.9785005,6434481.929188873,5593,2018-Q1,5593
madhya-pradesh,dindori district,22.9460091,81.0751743,20882302.0254674,19124,2018-Q1,19124
tamil-nadu,dindigul district,10.42568965,77.815663999998,118771377.4496328,65863,2018-Q1,65863
nagaland,dimapur district,25.904959,93.731523,38330087.58241701,18449,2018-Q1,18449
assam,dima hasao district,25.40036255,93.07522922678903,4781136.056644153,4233,2018-Q1,4233
assam,dibrugarh district,27.4881672,95.3623358,53258765.86975428,44792,2018-Q1,44792
arunachal-pradesh,dibang valley district,28.8291044,95.95540957636018,169.88856537681642,2,2018-Q1,2
maharashtra,dhule district,20.9257339,74.7771388,148893541.0108487,139376,2018-Q1,139376
assam,dhubri district,25.543251265569022,87.56949075116762,24431277.76189988,26072,2018-Q1,26072
rajasthan,dholpur district,27.66241555,75.02799709983499,58347675.43908934,52731,2018-Q1,52731
odisha,dhenkanal district,20.6590059,85.5813728,110743455.9782972,170704,2018-Q1,170704
assam,dhemaji district,27.5945155,94.71920979201424,17004986.97044885,16037,2018-Q1,16037
karnataka,dharwad district,15.37259455,75.13728310525259,231336487.175771,204568,2018-Q1,204568
tamil-nadu,dharmapuri district,12.14561305,78.11322171666458,104176495.5090033,63975,2018-Q1,63975
madhya-pradesh,dhar district,22.7109387,75.8334557,206440756.1100848,183246,2018-Q1,183246
jharkhand,dhanbad district,25.18749095,87.74432799719577,271973005.2993548,340878,2018-Q1,340878
chhattisgarh,dhamtari district,20.7077641,81.5396928,36969406.65169988,40907,2018-Q1,40907
tripura,dhalai district,23.9551603,91.8252174,8812172.047209244,9195,2018-Q1,9195
madhya-pradesh,dewas district,22.9622115,76.048227,204604018.7796314,187518,2018-Q1,187518
gujarat,devbhumi dwarka district,22.2444759,68.96800187672852,38615229.59304487,30538,2018-Q1,30538
uttar-pradesh,deoria district,28.3778393,79.9337825,189309639.0863884,174133,2018-Q1,174133
jharkhand,deoghar district,25.11124865,87.58268862604885,91100585.73781538,70058,2018-Q1,70058
odisha,deogarh district,21.53937805145885,84.73646090732899,17727797.11255935,22191,2018-Q1,22191
uttarakhand,dehradun district,29.2185482,79.52951525,512888194.28700817,329459,2018-Q1,329459
karnataka,davanagere district,14.25041265,75.82562831445583,169137586.6290862,137819,2018-Q1,137819
rajasthan,dausa district,26.80486585,76.44374569929329,172923365.8054712,216969,2018-Q1,216969
madhya-pradesh,datia district,25.6406595,78.4559832,30601928.39677934,43232,2018-Q1,43232
assam,darrang district,26.75,92.5,21593879.067580048,28031,2018-Q1,28031
west-bengal,darjiling district,26.75,88.25,144929152.8196955,101473,2018-Q1,101473
bihar,darbhanga district,25.4374355,85.2919909,224628301.6280015,217364,2018-Q1,217364
chhattisgarh,dantewada district,18.9090479,81.3427523,12999922.810604932,8452,2018-Q1,8452
madhya-pradesh,damoh district,21.8979776,80.7917082,52032411.78231111,69994,2018-Q1,69994
dadra-&-nagar-haveli-&-daman-&-diu,daman district,20.416667,72.883333,63416803.35332493,50218,2018-Q1,50218
karnataka,dakshina kannada district,12.82133045,75.22767162650372,270072282.1008538,185407,2018-Q1,185407
west-bengal,dakshin dinajpur district,21.8360051,87.4317229,69636116.7506341,224063,2018-Q1,224063
dadra-&-nagar-haveli-&-daman-&-diu,dadra and nagar haveli district,20.32272882809029,72.96509449334391,105807098.826703,92738,2018-Q1,92738
odisha,cuttack district,20.5021306,86.4259806,391394151.5517981,487588,2018-Q1,487588
tamil-nadu,cuddalore district,11.52020705,79.33963564750636,139521484.6215473,89956,2018-Q1,89956
tamil-nadu,coimbatore district,10.81357895,77.0797776943048,913824434.6276876,533919,2018-Q1,533919
rajasthan,churu district,28.20477805,74.69129960764752,120983003.9746917,141055,2018-Q1,141055
manipur,churachandpur district,24.3429852,93.6928709,11708258.72127384,4081,2018-Q1,4081
rajasthan,chittorgarh district,24.7167691,74.47217477196013,149857248.2601915,143009,2018-Q1,143009
andhra-pradesh,chittoor district,13.0108668,79.2249071,1009621878.0870508,830324,2018-Q1,830324
uttar-pradesh,chitrakoot district,25.19631215,80.91390945066726,25820943.75496399,28904,2018-Q1,28904
karnataka,chitradurga district,14.3051049,76.52948762295526,121914949.9512167,86333,2018-Q1,86333
assam,chirang district,26.70472375,92.04215071409465,11665546.58654756,8445,2018-Q1,8445
karnataka,chikkamagaluru district,13.4005751,75.6327382353719,79877643.751937,56698,2018-Q1,56698
karnataka,chikkaballapura district,13.5883185,77.78043012088901,164073011.9008005,114026,2018-Q1,114026
gujarat,chhotaudepur district,22.8159425,70.8316013,13597431.64407777,12962,2018-Q1,12962
madhya-pradesh,chhindwara district,22.0509324,78.939744,137580364.6221019,169657,2018-Q1,169657
madhya-pradesh,chhatarpur district,24.9072406,79.5844054,74380804.92252028,101457,2018-Q1,101457
tamil-nadu,chennai district,13.05843605,80.23610502517248,4281137762.522443,2656230,2018-Q1,2656230
tamil-nadu,chengalpattu district,12.636245,80.0653519331311,1030187164.9716308,569483,2018-Q1,569483
jharkhand,chatra district,24.9303981,87.82697147981766,48808252.914446905,28364,2018-Q1,28364
haryana,charkhi dadri district,28.6508033,76.2406402,49515979.82368229,32910,2018-Q1,32910
assam,charaideo district,25.40036255,93.07522922678903,10873516.97570264,13094,2018-Q1,13094
arunachal-pradesh,changlang district,27.272007,96.06552596101916,5380749.415278763,3195,2018-Q1,3195
maharashtra,chandrapur district,19.9648425,79.2914735,129589201.64438967,142067,2018-Q1,142067
chandigarh,chandigarh district,25.25,84.25,613435420.8676233,381895,2018-Q1,381895
manipur,chandel district,25.0,94.5,1376995.1405003848,880,2018-Q1,880
uttar-pradesh,chandauli district,28.6839951,77.4530398,88729334.73776625,100454,2018-Q1,100454
mizoram,champhai district,23.481,93.309599,871005.7153709702,453,2018-Q1,453
uttarakhand,champawat district,29.3321606,80.0928787,9818454.777565042,11037,2018-Q1,11037
uttarakhand,chamoli district,30.4996323,79.61879245944404,19931685.344290152,15936,2018-Q1,15936
himachal-pradesh,chamba district,32.69301,76.16363499125694,69091183.95337541,41138,2018-Q1,41138
karnataka,chamarajanagara district,11.9238058,76.9393558,35620369.651075795,32011,2018-Q1,32011
delhi,central district,28.71578752764242,77.1148936441799,4312145216.274474,2997714,2018-Q1,2997714
assam,cachar district,25.083333,92.916667,57250290.53047233,56481,2018-Q1,56481
bihar,buxar district,25.4374355,85.2919909,56987162.135050416,61490,2018-Q1,61490
madhya-pradesh,burhanpur district,22.3406138,77.0934034,33868567.81292613,30712,2018-Q1,30712
rajasthan,bundi district,25.4367659,75.736147085863,55554458.566172935,70989,2018-Q1,70989
maharashtra,buldhana district,21.1170373,79.1045331,213497260.8890954,211789,2018-Q1,211789
uttar-pradesh,bulandshahr district,24.9325993,82.64710860698771,160467571.0953015,140393,2018-Q1,140393
jammu-&-kashmir,budgam district,33.909931900000004,74.6291442577981,36218453.70685134,50748,2018-Q1,50748
uttar-pradesh,budaun district,28.027692,79.1254409,50581911.54070017,63143,2018-Q1,63143
odisha,boudh district,20.8431294,83.90634540989736,20293882.499208704,23736,2018-Q1,23736
gujarat,botad district,22.0456765,71.67217572593728,30496629.09589137,50541,2018-Q1,50541
assam,bongaigaon district,24.86648155,92.35121508187882,21510944.89126336,18899,2018-Q1,18899
jharkhand,bokaro district,24.25,85.916667,210067688.7569897,263441,2018-Q1,263441
assam,biswanath district,24.6827307,92.5622753,12983623.19716093,16453,2018-Q1,16453
manipur,bishnupur district,24.6319847,93.7619193,11341627.66784508,7005,2018-Q1,7005
west-bengal,birbhum district,24.0,87.583333,2520486412.4523764,2125816,2018-Q1,2125816
chhattisgarh,bilaspur district,22.4082821,82.3921724,169865045.945706,158509,2018-Q1,158509
himachal-pradesh,bilaspur district,32.0292,76.1514,20215586.70712164,21880,2018-Q1,21880
rajasthan,bikaner district,28.11616165,73.11056700494197,242246395.7093658,176548,2018-Q1,176548
uttar-pradesh,bijnor district,29.3843229,78.13645,165947956.498121,142321,2018-Q1,142321
chhattisgarh,bijapur district,18.7935679,80.815939,10478592.78920759,5863,2018-Q1,5863
karnataka,bidar district,18.02315245,77.249718672587,219204065.8266272,148528,2018-Q1,148528
madhya-pradesh,bhopal district,23.2301418,77.4179774,1905473874.832672,1704495,2018-Q1,1704495
bihar,bhojpur district,25.25,84.25,117985836.7722633,115890,2018-Q1,115890
haryana,bhiwani district,28.7312325,75.892349866212,190361119.4002706,125150,2018-Q1,125150
madhya-pradesh,bhind district,26.5658766,78.7826782,79340297.0941518,101429,2018-Q1,101429
rajasthan,bhilwara district,25.4889628,74.71640140204903,353135371.88422817,305744,2018-Q1,305744
gujarat,bhavnagar district,21.56228915,71.90747307960464,171495425.5898248,182948,2018-Q1,182948
gujarat,bharuch district,21.82728385,72.89461378721509,249246117.1352977,210073,2018-Q1,210073
rajasthan,bharatpur district,27.2662364,77.36917930978375,189769489.3702528,163715,2018-Q1,163715
maharashtra,bhandara district,21.1596616,79.6527375,76998452.71289259,94217,2018-Q1,94217
bihar,bhagalpur district,25.0,86.916667,172905796.12309912,174456,2018-Q1,174456
odisha,bhadrak district,21.0654838,86.5025885,187375014.2509325,279644,2018-Q1,279644
telangana,bhadradri kothagudem district,17.0557615,79.2779955,235828536.8619343,129015,2018-Q1,129015
uttar-pradesh,bhadohi district,28.6839951,77.4530398,73257504.7541741,83213,2018-Q1,83213
madhya-pradesh,betul district,21.9034464,77.8983504,120159354.6142154,121719,2018-Q1,121719
karnataka,bengaluru urban district,12.8632604,77.4338693,14162750303.064842,8306513,2018-Q1,8306513
karnataka,bengaluru rural district,18.02315245,77.249718672587,307037188.4705047,187325,2018-Q1,187325
chhattisgarh,bemetara district,21.7020322,81.5337224,40326244.06428747,41406,2018-Q1,41406
karnataka,belagavi district,15.8572666,74.5069343,286997207.1618964,265382,2018-Q1,265382
bihar,begusarai district,25.5,86.25,130265729.662316,134911,2018-Q1,134911
maharashtra,beed district,18.9869163,75.7533207,149979287.0801032,146374,2018-Q1,146374
punjab,bathinda district,30.20378255,74.95031921693888,151709303.3472533,96310,2018-Q1,96310
uttar-pradesh,basti district,28.630261,77.4133068,97389540.2084968,104079,2018-Q1,104079
chhattisgarh,bastar district,19.25,81.25,50365512.88669063,38895,2018-Q1,38895
madhya-pradesh,barwani district,22.7246439,75.8887036,42701906.92456499,31525,2018-Q1,31525
assam,barpeta district,24.6827307,92.5622753,56352302.37753609,67801,2018-Q1,67801
punjab,barnala district,30.3360996,74.11794319222481,30779491.36074768,20348,2018-Q1,20348
rajasthan,barmer district,25.58325505,71.6192556088008,175604034.2780011,125849,2018-Q1,125849
odisha,bargarh district,21.40164,83.5826487,69991391.85670178,100526,2018-Q1,100526
uttar-pradesh,bareilly district,28.457876,79.40557093743058,272420019.9524929,306561,2018-Q1,306561
rajasthan,baran district,24.92077465,76.68218371245564,60944385.49950702,86147,2018-Q1,86147
jammu-&-kashmir,baramulla district,34.176364050000004,74.31644115645875,44215018.00395158,83775,2018-Q1,83775
uttar-pradesh,bara banki district,26.9013312,81.2151601,86397546.44997555,111809,2018-Q1,111809
rajasthan,banswara district,23.4929453,74.34980159827685,41401806.90073449,35340,2018-Q1,35340
west-bengal,bankura district,23.0662415,87.3251923,159367696.6510181,378312,2018-Q1,378312
bihar,banka district,24.8926007,86.9140729,32623795.99344401,39192,2018-Q1,39192
jammu-&-kashmir,bandipore district,34.4563234,74.68249997667994,11885513.90501034,38208,2018-Q1,38208
uttar-pradesh,banda district,25.4892744,80.33507542764347,44150239.79604201,50935,2018-Q1,50935
gujarat,banas kantha district,24.26960875,72.16210994579416,197883270.2126429,237457,2018-Q1,237457
chhattisgarh,balrampur district,23.616665,83.618798,46601180.18608248,32628,2018-Q1,32628
uttar-pradesh,balrampur district,26.0849232204,83.1977435446,41793646.19211175,29546,2018-Q1,29546
chhattisgarh,baloda bazar district,21.6632098,82.1493121,55455251.90835041,61987,2018-Q1,61987
chhattisgarh,balod district,22.8825209,84.1362145,33548672.66448532,36121,2018-Q1,36121
uttar-pradesh,ballia district,25.7506229,84.1472,179589107.9504866,153366,2018-Q1,153366
karnataka,ballari district,15.34594225,76.82043303614613,317208290.2209056,218492,2018-Q1,218492
odisha,baleshwar district,21.5,86.75,306223509.1455674,469068,2018-Q1,469068
odisha,balangir district,20.7502257,83.2499464,99039589.98749083,122127,2018-Q1,122127
madhya-pradesh,balaghat district,21.8611181,80.32141872874212,96872703.12182496,99805,2018-Q1,99805
assam,baksa district,25.40036255,93.07522922678903,22457849.866681408,20964,2018-Q1,20964
uttar-pradesh,bahraich district,27.5727012,81.6061717,66721477.05129766,74017,2018-Q1,74017
uttar-pradesh,baghpat district,28.9464293,77.2170076,82062655.83083652,57482,2018-Q1,57482
uttarakhand,bageshwar district,28.711241,77.4445372,8645020.086163377,10580,2018-Q1,10580
karnataka,bagalkote district,16.28998085,75.58255865030114,130764471.8588669,137750,2018-Q1,137750
uttar-pradesh,azamgarh district,26.0637645,83.1833871,202633767.3253423,195700,2018-Q1,195700
uttar-pradesh,ayodhya district,26.0637645,83.1833871,119104433.1431952,139126,2018-Q1,139126
bihar,aurangabad district,24.80340125,84.41113582469077,114737537.8615089,114354,2018-Q1,114354
maharashtra,aurangabad district,19.8799062683,75.33891908889,680361961.5537964,620430,2018-Q1,620430
uttar-pradesh,auraiya district,26.1561764,81.80450839427581,61921892.86595084,65304,2018-Q1,65304
madhya-pradesh,ashoknagar district,24.57719,77.73266519115776,37659899.30267913,37316,2018-Q1,37316
bihar,arwal district,25.2320301,84.6775384,27549102.0795314,31620,2018-Q1,31620
tamil-nadu,ariyalur district,11.1530559,79.25857973608959,28339477.98730652,16068,2018-Q1,16068
gujarat,aravallis district,22.8159425,70.8316013,41323327.9014269,55016,2018-Q1,55016
bihar,araria district,26.3415664,87.9374027,95184067.64819424,81597,2018-Q1,81597
madhya-pradesh,anuppur district,26.2,78.2,53676545.83744537,52207,2018-Q1,52207
odisha,anugul district,19.75,83.0,139694643.5502907,173164,2018-Q1,173164
arunachal-pradesh,anjaw district,28.1114301,96.82699963398372,0.0,0,2018-Q1,0
jammu-&-kashmir,anantnag district,33.8096849,75.24945269877892,24885721.23193979,64478,2018-Q1,64478
andhra-pradesh,anantapur district,15.2282086,79.87449940066091,788830646.0324218,638664,2018-Q1,638664
gujarat,anand district,22.4742502,72.7367582116444,181858557.8990644,166658,2018-Q1,166658
uttar-pradesh,amroha district,28.0047122,78.476874,76524251.30942005,72415,2018-Q1,72415
punjab,amritsar district,31.3410997,74.6891758,200091373.45188668,98115,2018-Q1,98115
gujarat,amreli district,21.4191439,71.25276407265991,75032118.59542929,66032,2018-Q1,66032
maharashtra,amravati district,20.9376684,77.7781055,203490300.9184501,219644,2018-Q1,219644
uttar-pradesh,amethi district,26.1561764,81.80450839427581,86534576.5671038,96408,2018-Q1,96408
uttar-pradesh,ambedkar nagar district,28.6400895,77.42868,88818565.47490466,116711,2018-Q1,116711
haryana,ambala district,28.9841361,75.6039914,189250271.93812093,119503,2018-Q1,119503
rajasthan,alwar district,27.638573450000003,76.61404271796437,636193637.4406083,511188,2018-Q1,511188
uttarakhand,almora district,30.6309236,78.1603603,24966386.51717413,26086,2018-Q1,26086
madhya-pradesh,alirajpur district,22.3118775,74.3555894,11011810.08389782,7310,2018-Q1,7310
west-bengal,alipurduar district,26.4811994,89.5279728,65816753.348447375,71585,2018-Q1,71585
uttar-pradesh,aligarh district,27.87698975,78.13729027600994,227055506.8404816,194881,2018-Q1,194881
kerala,alappuzha district,9.777163,76.2803139,95014765.5124121,74941,2018-Q1,74941
maharashtra,akola district,20.7141213,77.0065838,98691994.83880848,112541,2018-Q1,112541
rajasthan,ajmer district,26.33188715,74.71697524629388,347556929.7043874,224405,2018-Q1,224405
mizoram,aizawl district,23.3078982,92.8556728,27918980.947612703,12006,2018-Q1,12006
maharashtra,ahmednagar district,19.108436,74.735394,522540233.7072377,438972,2018-Q1,438972
gujarat,ahmadabad district,23.0216238,72.5797068,2153123692.102862,1436152,2018-Q1,1436152
uttar-pradesh,agra district,27.1705419,78.0107255,353477588.3089036,298049,2018-Q1,298049
madhya-pradesh,agar malwa district,26.2,78.2,90606925.9503863,46312,2018-Q1,46312
telangana,adilabad district,19.1040149,78.340105,51488627.324255854,35960,2018-Q1,35960
